[
  {
    "_id": "1767628684440",
    "name": "jbrjr",
    "streetName": "m k rf",
    "location": "m efk fe",
    "date": "2026-01-05T15:58:04.378Z"
  },
  {
    "_id": "1767628937956",
    "name": "tomiwa",
    "streetName": "david",
    "location": "victor",
    "date": "2026-01-05T16:02:17.811Z"
  },
  {
    "_id": "1767628958015",
    "name": "babe",
    "streetName": "annabel",
    "location": "ex",
    "date": "2026-01-05T16:02:37.889Z"
  },
  {
    "_id": "1767629003563",
    "name": "dlml",
    "streetName": "dllmdl",
    "location": "dllm",
    "date": "2026-01-05T16:03:23.472Z"
  },
  {
    "_id": "1767629010607",
    "name": "dlmd",
    "streetName": "dldm",
    "location": "dkd",
    "date": "2026-01-05T16:03:30.506Z"
  },
  {
    "_id": "1767629017569",
    "name": "dkd ",
    "streetName": "dlmd",
    "location": "dldm",
    "date": "2026-01-05T16:03:37.457Z"
  },
  {
    "_id": "1767629024118",
    "name": "ldm",
    "streetName": "dpkofo",
    "location": "ffpd",
    "date": "2026-01-05T16:03:43.999Z"
  },
  {
    "_id": "1767629039842",
    "name": "pdkp",
    "streetName": "lm6ujj",
    "location": "lxzml",
    "date": "2026-01-05T16:03:59.750Z"
  },
  {
    "_id": "1767629046555",
    "name": "md k",
    "streetName": "d k",
    "location": "kdmol",
    "date": "2026-01-05T16:04:06.476Z"
  },
  {
    "_id": "1767629054247",
    "name": "dpplp",
    "streetName": "kdlod",
    "location": "llmdl",
    "date": "2026-01-05T16:04:14.165Z"
  },
  {
    "_id": "1767630102148",
    "name": "wwdmlwd",
    "streetName": "kdmdlw",
    "location": "kwmdl",
    "date": "2026-01-05T16:33:13.576Z"
  }
]